[
    {
        "name": "None",
        "locations": []
    },
    {
        "name": "ГСИ ВОЛГОГРАДСКАЯ ФИРМА НЗМ ООО",
        "locations": []
    },
    {
        "name": "«СТР Констракшн» ООО",
        "locations": [
            {
                "latitude": 55.889326,
                "longitude": 37.581352,
                "description1": "31",
                "description2": "5883.27",
                "address": "127576, Москва г, вн.тер.г. муниципальный округ Лианозово, ул Илимская, д. 5"
            }
        ]
    },
    {
        "name": "201 УНР ООО",
        "locations": []
    },
    {
        "name": "АВЕРС БАУ ООО",
        "locations": []
    },
    {
        "name": "АДК-ЭЛЕКТРО ООО",
        "locations": [
            {
                "latitude": 55.509426,
                "longitude": 37.371164,
                "description1": "66",
                "description2": "122057",
                "address": "Москва г, Десёновское, Москва, Армейская"
            }
        ]
    },
    {
        "name": "АКВАТОН РУС ООО",
        "locations": []
    },
    {
        "name": "Албутов Игорь Валерьевич ИП",
        "locations": [
            {
                "latitude": 55.772613,
                "longitude": 37.56909,
                "description1": "21",
                "description2": "28700",
                "address": "123557, Москва г, ул Пресненский Вал, д. 27, стр. 1"
            },
            {
                "latitude": 55.820708,
                "longitude": 37.599974,
                "description1": "5",
                "description2": "42000",
                "address": "127427, Москва г, вн.тер.г. муниципальный округ Останкинский, ул Академика Королева, влд. 21"
            }
        ]
    },
    {
        "name": "АЛИНАР ООО",
        "locations": []
    },
    {
        "name": "АЛКА СТРОЙ ООО",
        "locations": [
            {
                "latitude": 55.770628,
                "longitude": 37.689033,
                "description1": "6",
                "description2": "53595.19",
                "address": "105082, Москва г, пер Госпитальный, д. 113, к. 7"
            },
            {
                "latitude": 55.773029,
                "longitude": 37.627463,
                "description1": "5",
                "description2": "59565",
                "address": "127051, Москва г, вн.тер.г. муниципальный округ Мещанский, ул Садовая-Сухаревская, д. 14"
            },
            {
                "latitude": 55.758281,
                "longitude": 37.609263,
                "description1": "1610",
                "description2": "408260.4",
                "address": "г Москва, пер Газетный, Дом 9, Строение 11"
            },
            {
                "latitude": 55.773029,
                "longitude": 37.627463,
                "description1": "19",
                "description2": "749180",
                "address": "127051, Москва г, вн.тер.г. муниципальный округ Мещанский, ул Садовая-Сухаревская, д. 14"
            },
            {
                "latitude": 55.67063,
                "longitude": 37.61485,
                "description1": "15",
                "description2": "240075",
                "address": "115230, Москва г, проезд Электролитный, д. 12Б"
            },
            {
                "latitude": 55.751047,
                "longitude": 37.450477,
                "description1": "2",
                "description2": "32010",
                "address": "Москва г, вн.тер.г. муниципальный округ Хорошево-Мневники, ул Нижние Мнёвники, д. 35"
            }
        ]
    },
    {
        "name": "АЛЬВАЭРО ООО",
        "locations": [
            {
                "latitude": 55.816308,
                "longitude": 37.804036,
                "description1": "50",
                "description2": "860591.1000000001",
                "address": "107207, Москва г, вн.тер.г. муниципальный округ Гольяново, ул Байкальская, д. 30, к. 1"
            },
            {
                "latitude": 55.826488,
                "longitude": 37.434505,
                "description1": "19",
                "description2": "296229.21",
                "address": "125424, Москва г, вн.тер.г. муниципальный округ Покровское-Стрешнево, пр-д Волоколамский, д. 6, к. 2"
            },
            {
                "latitude": 55.718861,
                "longitude": 37.767735,
                "description1": "112",
                "description2": "836490",
                "address": "109428, Москва г, вн.тер.г. муниципальный округ Рязанский, пр-кт Рязанский, д. 26, к. 1"
            }
        ]
    },
    {
        "name": "АЛЬФАВЕСТСТРОЙ ООО",
        "locations": [
            {
                "latitude": 52.787097,
                "longitude": 52.263292,
                "description1": "8",
                "description2": "65670.0",
                "address": "Оренбургская обл, г Бузулук"
            },
            {
                "latitude": 55.65211,
                "longitude": 37.928398,
                "description1": "33",
                "description2": "922386.3",
                "address": "140073, Московская обл, г.о. Люберцы, г Люберцы, рп Томилино, мкр. Птицефабрика, д. 39"
            },
            {
                "latitude": 52.332809,
                "longitude": 35.427291,
                "description1": "4",
                "description2": "250400",
                "address": "Курская обл, г.о. город Железногорск"
            }
        ]
    },
    {
        "name": "АЛЬЯНССПЕЦСТРОЙ ООО ГК",
        "locations": [
            {
                "latitude": 55.722766,
                "longitude": 37.525342,
                "description1": "3638",
                "description2": "12768258.59",
                "address": "119285, Москва г, вн.тер.г. муниципальный округ Раменки, ул Мосфильмовская, д. 16, стр. 1"
            },
            {
                "latitude": 55.851793,
                "longitude": 37.538592,
                "description1": "1143",
                "description2": "1558103.2199999997",
                "address": "125438, Москва г, вн.тер.г. муниципальный округ Головинский, наб Лихоборская, д. 16, стр. 1"
            },
            {
                "latitude": 55.714698,
                "longitude": 37.516485,
                "description1": "5",
                "description2": "445000",
                "address": "119330, Москва г, ул. Мосфильмовская, дом 17Б, МАНСАРДА ПОМ  II КОМ 9"
            }
        ]
    },
    {
        "name": "АльянсСтройПроект ООО",
        "locations": [
            {
                "latitude": 55.764111,
                "longitude": 37.551358,
                "description1": "718",
                "description2": "279302.19",
                "address": "г Москва, ш Звенигородское, Дом 9/27, Строение 1"
            }
        ]
    },
    {
        "name": "Андреев Дмитрий Владимирович ИП",
        "locations": [
            {
                "latitude": 55.839866,
                "longitude": 37.646848,
                "description1": "1",
                "description2": "3489.6",
                "address": "129226, Москва г, вн.тер.г. муниципальный округ Ростокино, ул Сельскохозяйственная, д. 12Б, стр. 3"
            }
        ]
    },
    {
        "name": "АНТ ЯПЫ ООО",
        "locations": [
            {
                "latitude": 55.758281,
                "longitude": 37.609263,
                "description1": "21",
                "description2": "1120825",
                "address": "г Москва, пер Газетный, Дом 9, Строение 11"
            }
        ]
    },
    {
        "name": "АО \"ПОЛИТЕХСТРОЙ-СВАРГО\"",
        "locations": [
            {
                "latitude": 55.75211,
                "longitude": 37.457142,
                "description1": "4516",
                "description2": "359675",
                "address": "123423, Москва г, ул Нижние Мнёвники, д. 36, стр. 1"
            }
        ]
    },
    {
        "name": "АРДИСТРОЙ ООО",
        "locations": [
            {
                "latitude": 55.8191,
                "longitude": 37.952725,
                "description1": "3",
                "description2": "71955",
                "address": "143909, Московская обл, г Балашиха, ул Советская, д. 35"
            }
        ]
    },
    {
        "name": "Аржанов Дмитрий Алексеевич ИП",
        "locations": [
            {
                "latitude": 48.776521,
                "longitude": 44.563544,
                "description1": "2",
                "description2": "7650",
                "address": "Г.Волгоград, ул таращанцев 41, кв.28"
            }
        ]
    },
    {
        "name": "АРТ-СТОУН ООО",
        "locations": [
            {
                "latitude": 55.836767,
                "longitude": 37.641018,
                "description1": "8",
                "description2": "152000",
                "address": "129226, Москва г, ул Сельскохозяйственная, д. 26"
            }
        ]
    },
    {
        "name": "АРФИКС ООО",
        "locations": [
            {
                "latitude": 55.713532,
                "longitude": 37.569108,
                "description1": "18",
                "description2": "424433.3",
                "address": "119270, Москва г, вн.тер.г. муниципальный округ Хамовники, наб Лужнецкая, д. 6, стр. 4"
            }
        ]
    },
    {
        "name": "АРХБЕТОН ООО",
        "locations": [
            {
                "latitude": 56.250932,
                "longitude": 37.065073,
                "description1": "83",
                "description2": "650066.4800000001",
                "address": "Московская обл, ПОДОЛИНО МОСКОВСКАЯ ОБЛАСТЬ, СОЛНЕЧНОГОРСКИЙ РАЙОН, Д."
            }
        ]
    },
    {
        "name": "АСГ-КОНСТРАКШН ООО",
        "locations": [
            {
                "latitude": 54.89897,
                "longitude": 38.055115,
                "description1": "950",
                "description2": "29925",
                "address": "142800, Московская обл, г.о. Ступино, г Ступино, ул Транспортная, влд. 14"
            }
        ]
    },
    {
        "name": "АСК ТЕЛЛУР ООО",
        "locations": [
            {
                "latitude": 55.81782,
                "longitude": 37.439194,
                "description1": "2",
                "description2": "18409.82",
                "address": "125424, Москва г, вн.тер.г. муниципальный округ Покровское-Стрешнево, ш Волоколамское, соор. 69"
            },
            {
                "latitude": 55.685051,
                "longitude": 37.99155,
                "description1": "20",
                "description2": "143875.44",
                "address": "Московская обл, г.о. Люберцы, Карьера, проезд Кореневского Балластного, д. 4"
            }
        ]
    },
    {
        "name": "АТОМСТРОЙ ООО",
        "locations": [
            {
                "latitude": 55.58525,
                "longitude": 37.7085,
                "description1": "47",
                "description2": "258029.0",
                "address": "115598, Москва г, вн.тер.г. муниципальный округ Бирюлево Восточное, км МКАД 25-й, влд. 4, стр. 7"
            },
            {
                "latitude": 55.630319,
                "longitude": 37.455444,
                "description1": "82",
                "description2": "504277.49",
                "address": "поселение Мосрентген, вн.тер.г. поселение \"Мосрентген\", километр Киевское шоссе, 21-й, д. 3, к. 4"
            }
        ]
    },
    {
        "name": "АТР КОНСТРАКШН ООО",
        "locations": [
            {
                "latitude": 55.708633,
                "longitude": 37.6289,
                "description1": "4",
                "description2": "76000",
                "address": "115191, Москва г, пер Большой Староданиловский, д. 2, стр. 9"
            }
        ]
    },
    {
        "name": "Афанасьев Дмитрий Анатольевич ИП",
        "locations": [
            {
                "latitude": 55.723288,
                "longitude": 37.639186,
                "description1": "319",
                "description2": "722707.41",
                "address": "115054, Москва г, вн.тер.г. муниципальный округ Замоскворечье, проезд Жуков, д. 15"
            }
        ]
    },
    {
        "name": "Ашуров Абдульсалим",
        "locations": [
            {
                "latitude": 55.800453,
                "longitude": 37.594584,
                "description1": "8",
                "description2": "72820.0",
                "address": "127018, Москва г, вн.тер.г. муниципальный округ Бутырский, ул Складочная, д. 1, стр. 1"
            }
        ]
    },
    {
        "name": "Барсков Илья Леонидович",
        "locations": [
            {
                "latitude": 55.800453,
                "longitude": 37.594584,
                "description1": "13",
                "description2": "39783.11",
                "address": "127018, Москва г, вн.тер.г. муниципальный округ Бутырский, ул Складочная, д. 1, стр. 1"
            }
        ]
    },
    {
        "name": "БАРС-М ООО",
        "locations": [
            {
                "latitude": 55.517893,
                "longitude": 37.571785,
                "description1": "408",
                "description2": "1418288.65",
                "address": "жилой комплекс Никольские Луга, шоссе Варшавское, д. 282, к. 3ё"
            },
            {
                "latitude": 55.694165,
                "longitude": 37.712803,
                "description1": "413",
                "description2": "2245734.89",
                "address": "Москва г, вн.тер.г. муниципальный округ Печатники, ул Южнопортовая, з/у 42/1"
            },
            {
                "latitude": 55.651323,
                "longitude": 37.634182,
                "description1": "134",
                "description2": "1175534.92",
                "address": "115201, Москва г, вн.тер.г. муниципальный округ Москворечье-Сабурово, пер 1-й Котляковский, д. 4, к. 3"
            },
            {
                "latitude": 55.719561,
                "longitude": 37.678523,
                "description1": "384",
                "description2": "954503.9099999999",
                "address": "ул. Шарикоподшипниковская вл.11 к1"
            },
            {
                "latitude": 55.719561,
                "longitude": 37.678523,
                "description1": "60",
                "description2": "61375",
                "address": "ул. Шарикоподшипниковская вл.11 к1"
            },
            {
                "latitude": 55.646406,
                "longitude": 37.642537,
                "description1": "211",
                "description2": "853436.53",
                "address": "115201, Москва г, вн.тер.г. муниципальный округ Москворечье-Сабурово, пер 1-й Котляковский, д. 7, стр. 15"
            }
        ]
    },
    {
        "name": "БАСТИОН ООО",
        "locations": [
            {
                "latitude": 55.480735,
                "longitude": 37.564302,
                "description1": "350",
                "description2": "33000",
                "address": "142111, Московская обл, г Подольск, пр-кт Юных Ленинцев, д. 59"
            }
        ]
    },
    {
        "name": "Бкухлава Бадри",
        "locations": [
            {
                "latitude": 55.747221,
                "longitude": 37.518821,
                "description1": "2",
                "description2": "16807.6",
                "address": "121087, Москва г, ул Заречная, д. 2/1, стр. 8"
            }
        ]
    },
    {
        "name": "БМ КОНСТРАКШН ООО",
        "locations": [
            {
                "latitude": 55.909297,
                "longitude": 37.439724,
                "description1": "2001",
                "description2": "140165.7",
                "address": "141401, Московская обл, г.о. Химки, г Химки, ул Заводская, д. 2а, стр. 13"
            }
        ]
    },
    {
        "name": "БОФФЕР ООО",
        "locations": [
            {
                "latitude": 55.751959,
                "longitude": 37.560224,
                "description1": "1",
                "description2": "23170",
                "address": "121248, Москва г, вн.тер.г. муниципальный округ Дорогомилово, пр-кт Кутузовский, д. 12, стр. 38"
            }
        ]
    },
    {
        "name": "БСК ООО",
        "locations": [
            {
                "latitude": 55.730188,
                "longitude": 37.853227,
                "description1": "163",
                "description2": "224169",
                "address": "111673, Москва г, вн.тер.г. муниципальный округ Новокосино, ул Николая Старостина, влд. 8"
            }
        ]
    },
    {
        "name": "БТ СВАП Обособленное подразделение",
        "locations": [
            {
                "latitude": 55.782081,
                "longitude": 38.972879,
                "description1": "22",
                "description2": "215305.06",
                "address": "142600, Московская обл, г Орехово-Зуево, ш Ликинское, д. 22"
            }
        ]
    },
    {
        "name": "БТ СВАП ООО",
        "locations": [
            {
                "latitude": 55.782081,
                "longitude": 38.972879,
                "description1": "371",
                "description2": "1089110.73",
                "address": "142600, Московская обл, г Орехово-Зуево, ш Ликинское, д. 22"
            }
        ]
    },
    {
        "name": "БУЛАТ ООО",
        "locations": [
            {
                "latitude": 55.682118,
                "longitude": 37.739842,
                "description1": "756",
                "description2": "616884.8400000001",
                "address": "109387, Москва г, вн.тер.г. муниципальный округ Люблино, ул Люблинская, д. 111, стр. 2"
            },
            {
                "latitude": 55.791769,
                "longitude": 37.505382,
                "description1": "313",
                "description2": "567881.9400000001",
                "address": "125252, Москва г, вн.тер.г. муниципальный округ Сокол, ул Зорге, д. 25, стр. 2"
            },
            {
                "latitude": 55.844091,
                "longitude": 37.497054,
                "description1": "13",
                "description2": "387134.0",
                "address": "125493, Москва г, вн.тер.г. муниципальный округ Головинский, б-р Кронштадтский, д. 27"
            },
            {
                "latitude": 55.755864,
                "longitude": 37.617698,
                "description1": "139",
                "description2": "448191.82",
                "address": "г Москва"
            },
            {
                "latitude": 55.807683,
                "longitude": 37.756353,
                "description1": "1227",
                "description2": "1927742.6099999999",
                "address": "г Москва, пер Амурский"
            }
        ]
    },
    {
        "name": "БЮРО ПРОЕКТИРОВАНИЯ ХОЛОДА ПИФАГОР ООО",
        "locations": [
            {
                "latitude": 55.650272,
                "longitude": 37.856309,
                "description1": "8500",
                "description2": "300680",
                "address": "Московская обл, г Котельники, мкр. Силикат промышленная зона, Дом 19, Строение 2"
            }
        ]
    },
    {
        "name": "Васильев Вячеслав Викторович ИП",
        "locations": [
            {
                "latitude": 55.897831,
                "longitude": 37.983402,
                "description1": "1",
                "description2": "16005",
                "address": "141112, Московская обл, г.о. Щёлково, г Щёлково, ул Московская, д. 77, стр. 24"
            }
        ]
    },
    {
        "name": "ВВЕРХ-СТРОЙ-М ООО",
        "locations": []
    },
    {
        "name": "ВЕЛЕС-СТРОЙ ООО",
        "locations": []
    },
    {
        "name": "ВЕНТСТРОЙМОНТАЖ ООО",
        "locations": [
            {
                "latitude": 55.648738,
                "longitude": 37.763818,
                "description1": "211",
                "description2": "29165.2",
                "address": "109469, Москва г, вн.тер.г. муниципальный округ Марьино, б-р Мячковский, д. 31/19"
            }
        ]
    },
    {
        "name": "ВЕСТСТРОЙ ЗАО",
        "locations": [
            {
                "latitude": 55.713552,
                "longitude": 37.856919,
                "description1": "8",
                "description2": "128040",
                "address": "Москва г, вн.тер.г. муниципальный округ Косино-Ухтомский, ул Оренбургская, д. 4"
            },
            {
                "latitude": 56.00546,
                "longitude": 37.80903,
                "description1": "1",
                "description2": "16005",
                "address": "Московская обл, г.о. Пушкинский, мкр. Мамонтовка, Школьная, д. 28"
            }
        ]
    },
    {
        "name": "ВИВА 21 ВЕК ООО",
        "locations": []
    },
    {
        "name": "ВИПМОНТАЖСТРОЙ ООО",
        "locations": [
            {
                "latitude": 55.812479,
                "longitude": 37.481325,
                "description1": "24",
                "description2": "802380.0",
                "address": "123182, Москва г, вн.тер.г. муниципальный округ Щукино, ш Волоколамское, влд. 28"
            },
            {
                "latitude": 55.892557,
                "longitude": 37.438817,
                "description1": "8",
                "description2": "95244.0",
                "address": "141402, Московская обл, г.о. Химки, г Химки, ул Маяковского, д. 18А"
            },
            {
                "latitude": 55.751031,
                "longitude": 37.767151,
                "description1": "26",
                "description2": "252489.0",
                "address": "г Москва, ул Плеханова, Дом 11"
            }
        ]
    },
    {
        "name": "Владимиров Павел Владимирович ИП",
        "locations": [
            {
                "latitude": 55.923246,
                "longitude": 37.78306,
                "description1": "1",
                "description2": "18205",
                "address": "141007, Московская обл, г.о. Мытищи, г Мытищи, ул Медицинская, д. 6/2"
            },
            {
                "latitude": 55.590953,
                "longitude": 38.247175,
                "description1": "2",
                "description2": "36410",
                "address": "Московская обл, г.о. Раменский, г Раменское, Семейная, д. 7"
            }
        ]
    },
    {
        "name": "ВЛАДКОМ ООО",
        "locations": [
            {
                "latitude": 55.77155,
                "longitude": 37.568893,
                "description1": "500",
                "description2": "30610",
                "address": "123557, Москва г, ул Пресненский Вал, д. 21"
            },
            {
                "latitude": 55.671605,
                "longitude": 37.306423,
                "description1": "2500",
                "description2": "135885",
                "address": "143006, Московская обл, г Одинцово, ул Восточная, з/у 17А"
            },
            {
                "latitude": 55.674057,
                "longitude": 37.314589,
                "description1": "2500",
                "description2": "138305",
                "address": "Московская обл, г Одинцово, д Вырубово"
            }
        ]
    },
    {
        "name": "ВНС ООО",
        "locations": [
            {
                "latitude": 55.941864,
                "longitude": 37.261678,
                "description1": "10",
                "description2": "157500",
                "address": "141420, Московская обл, г.о. Химки, г Химки, д Подолино, Некрасова, д. 8"
            }
        ]
    },
    {
        "name": "ВЫБОР ООО",
        "locations": [
            {
                "latitude": 55.585174,
                "longitude": 37.599732,
                "description1": "355",
                "description2": "876704.86",
                "address": "117405, Москва г, вн.тер.г. муниципальный округ Северное Бутово, ш Варшавское, влд. 141"
            },
            {
                "latitude": 55.776624,
                "longitude": 37.617914,
                "description1": "8",
                "description2": "278815.0",
                "address": "127473, Москва г, вн.тер.г. муниципальный округ Тверской, ул Самотёчная, д. 9"
            }
        ]
    },
    {
        "name": "ВЭЛКО-2000 ООО ПКП",
        "locations": []
    },
    {
        "name": "ГАЛАКС ООО",
        "locations": [
            {
                "latitude": 55.681427,
                "longitude": 37.572396,
                "description1": "5",
                "description2": "51835.0",
                "address": "117218, Москва г, вн.тер.г. муниципальный округ Академический, ул Кедрова, д. 16"
            },
            {
                "latitude": 55.843181,
                "longitude": 37.490119,
                "description1": "5",
                "description2": "51835.0",
                "address": "125413, Москва г, вн.тер.г. муниципальный округ Головинский, б-р Кронштадтский, д. 9"
            },
            {
                "latitude": 55.562948,
                "longitude": 37.579619,
                "description1": "35",
                "description2": "951328.98",
                "address": "117216, Москва г, вн.тер.г. муниципальный округ Северное Бутово, ул Феодосийская, д. 7"
            },
            {
                "latitude": 55.839734,
                "longitude": 37.537694,
                "description1": "3",
                "description2": "35807.6",
                "address": "125008, Москва г, вн.тер.г. муниципальный округ Коптево, проезд 3-й Новомихалковский, д. 16А"
            },
            {
                "latitude": 55.669407,
                "longitude": 37.439311,
                "description1": "12",
                "description2": "381016.29000000004",
                "address": "Москва г, вн.тер.г. муниципальный округ Очаково-Матвеевское, ул Малая Очаковская, д. 2к1стр3"
            },
            {
                "latitude": 55.628225,
                "longitude": 37.639581,
                "description1": "26",
                "description2": "79627.47",
                "address": "Москва г, вн.тер.г. муниципальный округ Царицыно, б-р Кавказский, д. 51, к. 2"
            },
            {
                "latitude": 55.859226,
                "longitude": 37.333669,
                "description1": "10",
                "description2": "293636.38",
                "address": "Московская обл, г.о. Красногорск, Ангелово, 46Н-04639"
            },
            {
                "latitude": 55.472515,
                "longitude": 37.52368,
                "description1": "197",
                "description2": "102627.42",
                "address": "Москва г, вн.тер.г. поселение Рязановское, ул Алхимовская, к. 3"
            },
            {
                "latitude": 55.704692,
                "longitude": 37.900371,
                "description1": "24",
                "description2": "80365.04000000001",
                "address": "Московская обл, г.о. Люберцы, Гоголя, д. 3"
            },
            {
                "latitude": 55.842135,
                "longitude": 37.488538,
                "description1": "36",
                "description2": "114237.0",
                "address": "125413, Москва г, вн.тер.г. муниципальный округ Головинский, б-р Кронштадтский, д. 9, к. 2"
            },
            {
                "latitude": 55.742027,
                "longitude": 37.973377,
                "description1": "752",
                "description2": "68055.28",
                "address": "Московская обл, г.о. Балашиха, Керамическая, д. 2к3"
            },
            {
                "latitude": 55.562475,
                "longitude": 37.874365,
                "description1": "2",
                "description2": "36410",
                "address": "142714, Московская обл, г.о. Ленинский, г Видное, с Молоково, ул Революционная, д. 142"
            }
        ]
    },
    {
        "name": "ГАЛАКС-МК ООО",
        "locations": [
            {
                "latitude": 55.720859,
                "longitude": 37.787084,
                "description1": "4",
                "description2": "62694.5",
                "address": "109456, Москва г, вн.тер.г. муниципальный округ Рязанский, ул Паперника, д. 9"
            }
        ]
    },
    {
        "name": "ГДС-1 ООО",
        "locations": [
            {
                "latitude": 55.809424,
                "longitude": 37.615991,
                "description1": "5",
                "description2": "95000",
                "address": "129075, Москва г, ул Шереметьевская, д. 85Б, стр. 1"
            }
        ]
    },
    {
        "name": "Ген-Арт Констракшн ООО",
        "locations": [
            {
                "latitude": 55.792007,
                "longitude": 37.546605,
                "description1": "328",
                "description2": "876426.27",
                "address": "125167, Москва г, вн.тер.г. муниципальный округ Хорошевский, пр-кт Ленинградский, д. 37, к. 1"
            },
            {
                "latitude": 55.823505,
                "longitude": 37.415793,
                "description1": "250",
                "description2": "168534.02",
                "address": "125424, Москва г, вн.тер.г. муниципальный округ Покровское-Стрешнево, ул Лётная, д. 95"
            }
        ]
    },
    {
        "name": "ГЕФЕСТ ООО ИСК",
        "locations": [
            {
                "latitude": 55.720814,
                "longitude": 37.674364,
                "description1": "25",
                "description2": "346378.0",
                "address": "Москва г, Новоостаповская Москва, ул. Шарикоподшипниковская / ул."
            }
        ]
    },
    {
        "name": "Гидроспецизоляция ООО",
        "locations": [
            {
                "latitude": 55.82401,
                "longitude": 37.778667,
                "description1": "59",
                "description2": "90653.0",
                "address": "107143, Москва г, вн.тер.г. муниципальный округ Метрогородок, ул Вербная, д. 6, стр. 1"
            }
        ]
    },
    {
        "name": "ГЛАВКАПСТРОЙ ООО",
        "locations": [
            {
                "latitude": 55.83566,
                "longitude": 37.490497,
                "description1": "6511",
                "description2": "9668338.33",
                "address": "125212, Москва г, вн.тер.г. муниципальный округ Войковский, 2, Адмирала Макарова 6 стр13  ЛИТЕРА А ЧАСТЬ ПОМ №100 ЭТ, д. 6, стр. 13"
            },
            {
                "latitude": 57.083065,
                "longitude": 65.163324,
                "description1": "757",
                "description2": "1101940.33",
                "address": "125212, Москва г, 2, Адмирала Макарова 6 стр13  ЛИТЕРА А ЧАСТЬ ПОМ №100 ЭТ, д. 6, стр. 13"
            },
            {
                "latitude": 55.851793,
                "longitude": 37.538592,
                "description1": "145",
                "description2": "2501495.69",
                "address": "125438, Москва г, вн.тер.г. муниципальный округ Головинский, наб Лихоборская, д. 16, стр. 1"
            }
        ]
    },
    {
        "name": "Голоков Алексей Александрович",
        "locations": []
    },
    {
        "name": "Гончаров Денис Юрьевич",
        "locations": []
    },
    {
        "name": "ГОРОДСКАЯ ВЫСОТА ООО ПК",
        "locations": [
            {
                "latitude": 55.801754,
                "longitude": 37.965265,
                "description1": "106",
                "description2": "296664",
                "address": "143900, Московская обл, г.о. Балашиха, г Балашиха, ул Белякова, д. 1А"
            }
        ]
    },
    {
        "name": "ГПС ООО",
        "locations": [
            {
                "latitude": 55.551925,
                "longitude": 34.983703,
                "description1": "40",
                "description2": "759523.5",
                "address": "Смоленская обл, р-н Гагаринский, г Гагарин, ул Первомайская, Дом 12, помещение 11"
            }
        ]
    },
    {
        "name": "ГРАНД-ДЕВЕЛОПМЕНТ ООО",
        "locations": [
            {
                "latitude": 55.729731,
                "longitude": 37.853093,
                "description1": "60",
                "description2": "110453",
                "address": "111673, Москва г, вн.тер.г. муниципальный округ Косино-Ухтомский, ул Николая Старостина, д. 8А"
            }
        ]
    },
    {
        "name": "ГРИПОС ООО",
        "locations": [
            {
                "latitude": 55.811012,
                "longitude": 37.773682,
                "description1": "8",
                "description2": "76054.35",
                "address": "107497, Москва г, вн.тер.г. муниципальный округ Гольяново, ул Монтажная, д. 8/24"
            },
            {
                "latitude": 55.605795,
                "longitude": 37.47033,
                "description1": "104",
                "description2": "102681.31",
                "address": "Москва г, Мосрентген, москва, 7502а Проектируемый проезд, д. 1"
            }
        ]
    },
    {
        "name": "ГРОМАКС КОНСТРАКШН ООО",
        "locations": []
    },
    {
        "name": "Группа компаний СТАНКОЛИТ АО",
        "locations": []
    },
    {
        "name": "ДАГМА КОНСТРАКШН ООО",
        "locations": [
            {
                "latitude": 55.835705,
                "longitude": 37.284971,
                "description1": "6",
                "description2": "131594.5",
                "address": "143408, Московская обл, г.о. Красногорск, г Красногорск, ул Черневская, д. 95"
            }
        ]
    },
    {
        "name": "Данилов Никита Анатольевич",
        "locations": []
    },
    {
        "name": "Данилова Алевтина Николаевна ИП",
        "locations": [
            {
                "latitude": 55.772613,
                "longitude": 37.56909,
                "description1": "20",
                "description2": "26600",
                "address": "123557, Москва г, ул Пресненский Вал, д. 27, стр. 1"
            },
            {
                "latitude": 55.820708,
                "longitude": 37.599974,
                "description1": "5",
                "description2": "42000",
                "address": "127427, Москва г, вн.тер.г. муниципальный округ Останкинский, ул Академика Королева, влд. 21"
            }
        ]
    },
    {
        "name": "ДАНКЕР ООО",
        "locations": [
            {
                "latitude": 55.800453,
                "longitude": 37.594584,
                "description1": "955",
                "description2": "591124.53",
                "address": "127018, Москва г, вн.тер.г. муниципальный округ Бутырский, ул Складочная, д. 1, стр. 1"
            }
        ]
    },
    {
        "name": "ДБР ООО",
        "locations": [
            {
                "latitude": 55.599204,
                "longitude": 37.063384,
                "description1": "25",
                "description2": "41910",
                "address": "143090, Московская Область, г.о. Краснознаменск, г Краснознаменск, ул Автомобилистов, здание 20, строение 1"
            }
        ]
    },
    {
        "name": "ДЖИЭРПИ ГРУПП ООО",
        "locations": [
            {
                "latitude": 55.747221,
                "longitude": 37.518821,
                "description1": "481",
                "description2": "1406205.4",
                "address": "121087, Москва г, ул Заречная, д. 2/1, стр. 8"
            },
            {
                "latitude": 55.889361,
                "longitude": 37.444853,
                "description1": "10",
                "description2": "336809.0",
                "address": "Московская обл, г Химки"
            },
            {
                "latitude": 55.881131,
                "longitude": 37.417931,
                "description1": "12",
                "description2": "532420.0",
                "address": "Химки обл, г.о. Химки, улица Молодёжная, д. 7, к. 1"
            }
        ]
    },
    {
        "name": "ДИ ЭЛ ДЖИ АО",
        "locations": [
            {
                "latitude": 55.792108,
                "longitude": 37.540757,
                "description1": "2380",
                "description2": "2110099.86",
                "address": "125167, Москва г, вн.тер.г. муниципальный округ Хорошевский, пр-кт Ленинградский, д. 37"
            }
        ]
    },
    {
        "name": "ДИКАТ ООО",
        "locations": [
            {
                "latitude": 55.800453,
                "longitude": 37.594584,
                "description1": "1947",
                "description2": "302890.43",
                "address": "127018, Москва г, вн.тер.г. муниципальный округ Бутырский, ул Складочная, д. 1, стр. 1"
            },
            {
                "latitude": 55.800453,
                "longitude": 37.594584,
                "description1": "289.5",
                "description2": "353407.78",
                "address": "127018, Москва г, вн.тер.г. муниципальный округ Бутырский, ул Складочная, д. 1, стр. 1"
            }
        ]
    },
    {
        "name": "Димов Денис Степанович",
        "locations": [
            {
                "latitude": 55.800453,
                "longitude": 37.594584,
                "description1": "21",
                "description2": "7862.8",
                "address": "127018, Москва г, вн.тер.г. муниципальный округ Бутырский, ул Складочная, д. 1, стр. 1"
            }
        ]
    },
    {
        "name": "Димов Николай",
        "locations": [
            {
                "latitude": 59.846834,
                "longitude": 30.370818,
                "description1": "121",
                "description2": "30838.500000000004",
                "address": "192239, Санкт-Петербург г, вн.тер.г. муниципальный округ Купчино, ул Белградская, д. 52, к. 1, литера А"
            },
            {
                "latitude": 55.760119,
                "longitude": 37.603864,
                "description1": "80",
                "description2": "3138.0",
                "address": "125375, Москва г, вн.тер.г. муниципальный округ Пресненский, пер Леонтьевский, д. 15, кв. 30"
            }
        ]
    },
    {
        "name": "Добрынин Андрей Валентинович",
        "locations": []
    },
    {
        "name": "ДСК1-РОСТОКИНО ООО",
        "locations": [
            {
                "latitude": 55.94568,
                "longitude": 37.33613,
                "description1": "63",
                "description2": "1015808",
                "address": "Московская обл, г Химки, мкр. Подрезково, 4 корпус"
            },
            {
                "latitude": 55.542844,
                "longitude": 37.584937,
                "description1": "20",
                "description2": "746765",
                "address": "Московская обл, г.о. Ленинский, г Видное, рп Бутово, р-н южная Битца, к. 10"
            },
            {
                "latitude": 55.542844,
                "longitude": 37.584937,
                "description1": "97",
                "description2": "902241.5",
                "address": "Московская обл, г.о. Ленинский, г Видное, рп Бутово, р-н южная Битца, к. 10"
            },
            {
                "latitude": 55.565407,
                "longitude": 37.682565,
                "description1": "17",
                "description2": "610499",
                "address": "Московская обл, г.о. Ленинский, г Видное, Сады Фруктовые, д. 2"
            },
            {
                "latitude": 55.529364,
                "longitude": 37.715839,
                "description1": "28",
                "description2": "1021191.2",
                "address": "142701, Московская обл, г.о. Ленинский, г Видное, д Сапроново, д. 85"
            },
            {
                "latitude": 55.944606,
                "longitude": 37.341493,
                "description1": "14",
                "description2": "288709",
                "address": "141431, Московская обл, г Химки, мкр. Подрезково, ул Комсомольская, д. 16, к. 1"
            },
            {
                "latitude": 55.681448,
                "longitude": 37.929288,
                "description1": "8",
                "description2": "265553",
                "address": "Москва г, 7671 проектируем ый проезд"
            }
        ]
    },
    {
        "name": "Заварыкин Сергей Александрович",
        "locations": []
    },
    {
        "name": "ЗАВОД ЖБК АО",
        "locations": [
            {
                "latitude": 51.686646,
                "longitude": 39.153503,
                "description1": "3",
                "description2": "54615",
                "address": "394019, Воронежская обл, г.о. город Воронеж, г Воронеж, ул Торпедо, д. 45В"
            }
        ]
    },
    {
        "name": "Запевалова Екатерина Сергеевна ИП",
        "locations": [
            {
                "latitude": 55.772613,
                "longitude": 37.56909,
                "description1": "20",
                "description2": "26600",
                "address": "123557, Москва г, ул Пресненский Вал, д. 27, стр. 1"
            }
        ]
    },
    {
        "name": "Ивашов Дмитрий Александрович ИП",
        "locations": [
            {
                "latitude": 55.723288,
                "longitude": 37.639186,
                "description1": "488",
                "description2": "392189.57",
                "address": "115054, Москва г, вн.тер.г. муниципальный округ Замоскворечье, проезд Жуков, д. 15"
            }
        ]
    },
    {
        "name": "ИЛГАР ООО",
        "locations": [
            {
                "latitude": 55.741004,
                "longitude": 37.436041,
                "description1": "82",
                "description2": "3046598.84",
                "address": "121615, Москва г, вн.тер.г. муниципальный округ Кунцево, ш Рублёвское, д. 16, к. 3"
            },
            {
                "latitude": 55.804435,
                "longitude": 37.592375,
                "description1": "13",
                "description2": "163555.89",
                "address": "127018, Москва г, вн.тер.г. муниципальный округ Бутырский, ул Складочная, д. 1, стр. 4"
            },
            {
                "latitude": 55.567188,
                "longitude": 37.418703,
                "description1": "511",
                "description2": "99880.17",
                "address": "деревня Летово, Москва, Летовская Малая, д. 8, к. 3"
            },
            {
                "latitude": 55.822286,
                "longitude": 37.94102,
                "description1": "738",
                "description2": "202649.35",
                "address": "Московская обл, г Балашиха, Колдунова, д. 2"
            },
            {
                "latitude": 55.622111,
                "longitude": 37.944918,
                "description1": "119",
                "description2": "494536.98000000004",
                "address": "Московская обл, г.о. Люберцы, г Люберцы, п Мирный"
            },
            {
                "latitude": 55.862651,
                "longitude": 37.383193,
                "description1": "6",
                "description2": "78030.13",
                "address": "Московская обл, Красногорский, Путилково деревня, Путилковское шоссе, д. 2, стр. 1"
            },
            {
                "latitude": 55.695626,
                "longitude": 37.218424,
                "description1": "3",
                "description2": "111295.76",
                "address": "Одинцовский городской округ, Лайково жилой комплекс Город-событие"
            },
            {
                "latitude": 55.946683,
                "longitude": 37.770187,
                "description1": "1086.0",
                "description2": "417034.55",
                "address": "Мытищи, переулок 1-й Стрелковый, д. 3, к. а"
            },
            {
                "latitude": 55.941002,
                "longitude": 37.777158,
                "description1": "810",
                "description2": "109070",
                "address": "141013, Московская обл, г.о. Мытищи, г Мытищи, ул Силикатная, д. 41, к. 3"
            },
            {
                "latitude": 55.788287,
                "longitude": 37.314023,
                "description1": "3.0",
                "description2": "13041",
                "address": "деревня Гольёво, область Московская, переулок Новый, д. 26"
            },
            {
                "latitude": 55.778198,
                "longitude": 37.48702,
                "description1": "2",
                "description2": "8694",
                "address": "123423, Москва г, вн.тер.г. муниципальный округ Хорошево-Мневники, ул Демьяна Бедного, д. 17, к. 2"
            },
            {
                "latitude": 55.951582,
                "longitude": 37.46043,
                "description1": "1",
                "description2": "20000",
                "address": "Московская обл, г.о. Химки, Олимпийская Московская обл., Химки, мкр. Клязьма-Старбеево, квартал Международный, ул."
            }
        ]
    },
    {
        "name": "ИНЖЕНЕР КЛИМАТ ООО",
        "locations": [
            {
                "latitude": 56.178849,
                "longitude": 36.992192,
                "description1": "8",
                "description2": "142917.6",
                "address": "141508, Московская обл, г.о. Солнечногорск, г Солнечногорск, ул Красная, д. 2а, кв. 3"
            }
        ]
    },
    {
        "name": "ИННОВА ООО",
        "locations": [
            {
                "latitude": 55.766694,
                "longitude": 37.877653,
                "description1": "45",
                "description2": "873410.0",
                "address": "143960, Московская обл, г.о. Реутов, г Реутов, ул Фабричная, д. 12"
            }
        ]
    },
    {
        "name": "ИННОВА-С ООО",
        "locations": [
            {
                "latitude": 55.766694,
                "longitude": 37.877653,
                "description1": "67",
                "description2": "193948.5",
                "address": "143960, Московская обл, г.о. Реутов, г Реутов, ул Фабричная, д. 12"
            }
        ]
    },
    {
        "name": "ИНТЕГРАЦИЯ ООО",
        "locations": [
            {
                "latitude": 55.645807,
                "longitude": 37.380812,
                "description1": "16",
                "description2": "330125",
                "address": "119619, Москва г, вн.тер.г. муниципальный округ Солнцево, ул Производственная, д. 15/2"
            }
        ]
    },
    {
        "name": "ИП Алексеев Николай Сергеевич",
        "locations": [
            {
                "latitude": 55.538326,
                "longitude": 37.618794,
                "description1": "1",
                "description2": "23170",
                "address": "142720, Московская обл, г.о. Ленинский, г Видное, рп Боброво, ул Лесная, д. 8, кв. 236"
            }
        ]
    },
    {
        "name": "ИП Качалов Александр Александрович",
        "locations": [
            {
                "latitude": 55.978493,
                "longitude": 43.100332,
                "description1": "1",
                "description2": "47992",
                "address": "606107, Нижегородская обл, р-н Павловский, г Павлово, ул 1-я Северная, д. 43Б"
            }
        ]
    },
    {
        "name": "ИТС ООО",
        "locations": [
            {
                "latitude": 56.006809,
                "longitude": 37.860064,
                "description1": "334",
                "description2": "111068.95",
                "address": "141207, Московская обл, г Пушкино, туп Надсоновский, д. 6"
            }
        ]
    },
    {
        "name": "Калачян Сейран Агасинович ИП",
        "locations": []
    },
    {
        "name": "КВАДРО ООО",
        "locations": [
            {
                "latitude": 55.718861,
                "longitude": 37.767735,
                "description1": "120",
                "description2": "323135.91000000003",
                "address": "109428, Москва г, вн.тер.г. муниципальный округ Рязанский, пр-кт Рязанский, д. 26, к. 1"
            }
        ]
    },
    {
        "name": "КЕНМЕР-МОНОЛИТ ООО",
        "locations": [
            {
                "latitude": 55.704179,
                "longitude": 37.591925,
                "description1": "24",
                "description2": "932949.32",
                "address": "119334, Москва г, ул Вавилова, д. 5, к. 2"
            },
            {
                "latitude": 55.69212,
                "longitude": 37.516557,
                "description1": "8",
                "description2": "82432.82",
                "address": "119607, Москва г, вн.тер.г. муниципальный округ Раменки, б-р Раменский, д. 1"
            }
        ]
    },
    {
        "name": "КЛОДО ООО",
        "locations": [
            {
                "latitude": 55.729731,
                "longitude": 37.853093,
                "description1": "8",
                "description2": "148843.5",
                "address": "111673, Москва г, вн.тер.г. муниципальный округ Косино-Ухтомский, ул Николая Старостина, д. 8А"
            },
            {
                "latitude": 55.880222,
                "longitude": 37.5175,
                "description1": "14",
                "description2": "298301.5",
                "address": "125412, Москва г, вн.тер.г. муниципальный округ Западное Дегунино, ул Базовская, д. 24А, стр. 1"
            },
            {
                "latitude": 55.880828,
                "longitude": 37.517204,
                "description1": "2",
                "description2": "38000",
                "address": "125412, Москва г, вн.тер.г. муниципальный округ Западное Дегунино, ул Базовская, д. 26"
            },
            {
                "latitude": 55.879339,
                "longitude": 37.517868,
                "description1": "5",
                "description2": "118072.5",
                "address": "125412, Москва г, вн.тер.г. муниципальный округ Западное Дегунино, ул Базовская, д. 24"
            }
        ]
    },
    {
        "name": "КОЛОРАДО ООО",
        "locations": [
            {
                "latitude": 55.611185,
                "longitude": 37.449048,
                "description1": "1",
                "description2": "83185.8",
                "address": "Москва г, Адмирала Корнилова, д. 37, стр. 1"
            }
        ]
    },
    {
        "name": "Комарь Александр Олегович",
        "locations": []
    },
    {
        "name": "КОМБИНАТ ИННОВАЦИОННЫХ ТЕХНОЛОГИЙ - МОНАРХ ООО",
        "locations": [
            {
                "latitude": 55.591014,
                "longitude": 37.186974,
                "description1": "33",
                "description2": "612679.0",
                "address": "Москва г, п Марушкинское"
            }
        ]
    },
    {
        "name": "Кондратьева Лилия Ливерьевна",
        "locations": []
    },
    {
        "name": "КОНТИ АО",
        "locations": [
            {
                "latitude": 55.552281,
                "longitude": 37.474165,
                "description1": "8054",
                "description2": "7039784.3",
                "address": "Москва г, вн.тер.г. поселение Сосенское, Дзен-кварталы жилой комплекс, д. 3.4"
            },
            {
                "latitude": 55.594463,
                "longitude": 37.202335,
                "description1": "11",
                "description2": "167971.09999999998",
                "address": "Марушинское, Москва, Москва поселение Марушкинское,"
            },
            {
                "latitude": 55.549007,
                "longitude": 37.486014,
                "description1": "23",
                "description2": "194100.0",
                "address": "г Москва, п Сосенское, ул Александры Монаховой"
            },
            {
                "latitude": 55.600903,
                "longitude": 37.225045,
                "description1": "2168",
                "description2": "579361.99",
                "address": "поселение Марушкинское, Марушинское, 33 квартал"
            }
        ]
    },
    {
        "name": "КОРОНА ООО",
        "locations": [
            {
                "latitude": 55.629399,
                "longitude": 37.308965,
                "description1": "1377",
                "description2": "4149480.8299999996",
                "address": "108850, Москва г, вн.тер.г. поселение Внуковское, км Боровское шоссе 29-й (п Внуковское), д. 4, стр. 1"
            },
            {
                "latitude": 55.811422,
                "longitude": 37.517293,
                "description1": "165",
                "description2": "2117529.2",
                "address": "125315, Москва г, вн.тер.г. муниципальный округ Аэропорт, ул Часовая, д. 27/12"
            },
            {
                "latitude": 55.730188,
                "longitude": 37.853227,
                "description1": "325",
                "description2": "58087.270000000004",
                "address": "111673, Москва г, вн.тер.г. муниципальный округ Новокосино, ул Николая Старостина, влд. 8"
            }
        ]
    },
    {
        "name": "КОЭЛЬНЕР ТРЕЙДИНГ КЛД ООО",
        "locations": []
    },
    {
        "name": "КРАСНОУТ СЕРВИС ООО",
        "locations": [
            {
                "latitude": 56.074891,
                "longitude": 92.927904,
                "description1": "2",
                "description2": "25960.34",
                "address": "Красноярский край, Северное, д. 17"
            }
        ]
    },
    {
        "name": "КРОК ИНКОРПОРЕЙТЕД ЗАО",
        "locations": [
            {
                "latitude": 55.863429,
                "longitude": 37.57943,
                "description1": "163",
                "description2": "659059.08",
                "address": "127410, Москва г, вн.тер.г. муниципальный округ Отрадное, ш Алтуфьевское, д. 33Д, стр. 1"
            }
        ]
    },
    {
        "name": "Кудряшов Егор Геннадьевич",
        "locations": [
            {
                "latitude": 55.929303,
                "longitude": 37.884749,
                "description1": "2",
                "description2": "16807.0",
                "address": "141060, Московская обл, г.о. Королёв, г Королёв, мкр Болшево, проезд Бурковский, д. 38, к. 1"
            }
        ]
    },
    {
        "name": "К-ФУНДАМЕНТ ООО",
        "locations": [
            {
                "latitude": 55.727303,
                "longitude": 37.860603,
                "description1": "101",
                "description2": "34744.5",
                "address": "111673, Москва г, ул Салтыковская, д. 8"
            },
            {
                "latitude": 55.676149,
                "longitude": 37.944874,
                "description1": "1",
                "description2": "16005",
                "address": "111674, Москва г, ул 1-я Вольская, д. 45, стр. 5"
            }
        ]
    },
    {
        "name": "Ларичкин Денис Леонидович",
        "locations": []
    },
    {
        "name": "ЛЕГЕНДА ООО",
        "locations": [
            {
                "latitude": 55.747642,
                "longitude": 37.592411,
                "description1": "4",
                "description2": "319140",
                "address": "119002, Москва г, вн.тер.г. муниципальный округ Арбат, пер Калошин, д. 2/24"
            },
            {
                "latitude": 55.76877,
                "longitude": 37.631326,
                "description1": "146",
                "description2": "768353.76",
                "address": "107045, Москва г, вн.тер.г. муниципальный округ Мещанский, ул Сретенка, д. 13, к. 26"
            },
            {
                "latitude": 55.740096,
                "longitude": 37.618992,
                "description1": "50",
                "description2": "76000",
                "address": "119180, Москва г, пер Старомонетный, д. 22"
            },
            {
                "latitude": 55.762221,
                "longitude": 37.551088,
                "description1": "277",
                "description2": "698806.62",
                "address": "123100, Москва г, вн.тер.г. муниципальный округ Пресненский, ул Сергея Макеева, д. 9 , стр. 6"
            },
            {
                "latitude": 55.687223,
                "longitude": 37.343056,
                "description1": "16",
                "description2": "763624.99",
                "address": "район Южный, Сколково Инновационный центр, Москва, Луговая, д. 10"
            },
            {
                "latitude": 55.756351,
                "longitude": 37.564311,
                "description1": "4",
                "description2": "280205",
                "address": "123376, Москва г, вн.тер.г. муниципальный округ Пресненский, ул Рочдельская, д. 15, стр. 10"
            },
            {
                "latitude": 55.754031,
                "longitude": 37.594297,
                "description1": "10",
                "description2": "1062000",
                "address": "г Москва, ул Поварская, Дом 11, Строение 1"
            }
        ]
    },
    {
        "name": "ЛЕГИОНСТРОЙГРУПП ООО",
        "locations": [
            {
                "latitude": 55.564516,
                "longitude": 37.487047,
                "description1": "10",
                "description2": "104525.35",
                "address": "108801, Москва г, вн.тер.г. поселение Сосенское, п Коммунарка, ул Александры Монаховой, д. 43, к. 1"
            }
        ]
    },
    {
        "name": "ЛЕ-ИНТЕГРАЦИЯ ООО",
        "locations": [
            {
                "latitude": 55.706076,
                "longitude": 37.600388,
                "description1": "1218",
                "description2": "268365.44000000006",
                "address": "119334, Москва г, вн.тер.г. муниципальный округ Донской, проезд 5-й Донской, д. 21Б, стр. 43"
            },
            {
                "latitude": 55.660074,
                "longitude": 37.551528,
                "description1": "501",
                "description2": "2577488.93",
                "address": "Москва г, вн.тер.г. муниципальный округ Черемушки, ул Намёткина, д. 10 д"
            }
        ]
    },
    {
        "name": "ЛЕНСПЕЦСМУ-РЕКОНСТРУКЦИЯ АО",
        "locations": [
            {
                "latitude": 55.727699,
                "longitude": 37.644333,
                "description1": "100",
                "description2": "5697.5",
                "address": "115114, Москва г, ул Летниковская, влд. 4 , к. 6а"
            },
            {
                "latitude": 55.703768,
                "longitude": 37.636302,
                "description1": "200",
                "description2": "17636.25",
                "address": "115280, Москва г, вн.тер.г. муниципальный округ Даниловский, ул Автозаводская, д. 23, к. 23"
            }
        ]
    },
    {
        "name": "ЛИДЕР ООО",
        "locations": [
            {
                "latitude": 55.746603,
                "longitude": 37.758159,
                "description1": "102",
                "description2": "65271.24",
                "address": "111524, Москва г, вн.тер.г. муниципальный округ Перово, ул Перовская, д. 8, стр. 4"
            },
            {
                "latitude": 55.880015,
                "longitude": 37.520213,
                "description1": "304",
                "description2": "138213.75",
                "address": "125412, Москва г, ш Коровинское, д. 29, к. 1"
            }
        ]
    },
    {
        "name": "ЛИМАК КОНСТРАКШН ООО",
        "locations": [
            {
                "latitude": 55.754066,
                "longitude": 37.524731,
                "description1": "2",
                "description2": "32010",
                "address": "123290, Москва г, проезд Шмитовский, д. 39, к. 2"
            }
        ]
    },
    {
        "name": "ЛОАДЭК ООО ПРОИЗВОДСТВЕННЫЙ ЦЕНТР",
        "locations": [
            {
                "latitude": 55.761452,
                "longitude": 37.749867,
                "description1": "2128",
                "description2": "133815",
                "address": "111123, Москва г, вн.тер.г. муниципальный округ Ивановское, ш Энтузиастов, д. 31, стр. 50"
            }
        ]
    },
    {
        "name": "ЛОГИК ООО",
        "locations": [
            {
                "latitude": 55.609975,
                "longitude": 37.659712,
                "description1": "409",
                "description2": "153570.6",
                "address": "115404, Москва г, вн.тер.г. муниципальный округ Бирюлево Восточное, ул 1-я Стекольная, д. 7, стр. 6"
            }
        ]
    },
    {
        "name": "ЛУНА ООО",
        "locations": [
            {
                "latitude": 55.948427,
                "longitude": 36.83911,
                "description1": "425",
                "description2": "147492.25",
                "address": "Московская обл, г.о. Истра, Северный посёлок, Шоссейная, д. 18, к. Б"
            }
        ]
    },
    {
        "name": "МАЖОР ГРУПП ООО",
        "locations": [
            {
                "latitude": 55.755788,
                "longitude": 37.551923,
                "description1": "388",
                "description2": "1265530.0",
                "address": "123100, Москва г, вн.тер.г. муниципальный округ Пресненский, ул Мантулинская, д. 5, стр. 6"
            },
            {
                "latitude": 55.780952,
                "longitude": 37.622998,
                "description1": "674",
                "description2": "3112526.39",
                "address": "129110, Москва г, вн.тер.г. муниципальный округ Мещанский, пр-кт Олимпийский, д. 16, соор. 1"
            },
            {
                "latitude": 55.780952,
                "longitude": 37.622998,
                "description1": "704",
                "description2": "4668277.39",
                "address": "129110, Москва г, вн.тер.г. муниципальный округ Мещанский, пр-кт Олимпийский, д. 16, соор. 1"
            },
            {
                "latitude": 55.804825,
                "longitude": 37.363466,
                "description1": "44",
                "description2": "388222.86",
                "address": "городской округ Красногорск, Береста коттеджный посёлок, д. 113"
            },
            {
                "latitude": 55.674067,
                "longitude": 37.790839,
                "description1": "222",
                "description2": "1666310.59",
                "address": "109559, Москва г, вн.тер.г. муниципальный округ Марьино, ул Перерва, д. 88"
            },
            {
                "latitude": 55.670991,
                "longitude": 37.631909,
                "description1": "177",
                "description2": "192170.0",
                "address": "115230, Москва г, Хлебозаводский проезд, дом 7А, этаж 2, комната 22"
            },
            {
                "latitude": 55.755864,
                "longitude": 37.617698,
                "description1": "24",
                "description2": "604235.0",
                "address": "г Москва"
            },
            {
                "latitude": 55.715271,
                "longitude": 37.524579,
                "description1": "25",
                "description2": "174968.95",
                "address": "г Москва, пр-кт Университетский, Дом 12А"
            },
            {
                "latitude": 55.652715,
                "longitude": 37.820223,
                "description1": "101",
                "description2": "993248.0900000001",
                "address": "г Москва, ул Верхние Поля, Дом 54, Строение 15"
            },
            {
                "latitude": 55.679138,
                "longitude": 37.263663,
                "description1": "5",
                "description2": "123424.99999999999",
                "address": "Московская обл, г Одинцово"
            },
            {
                "latitude": 55.746309,
                "longitude": 37.304536,
                "description1": "52",
                "description2": "204976.40000000002",
                "address": "Московская обл, г Одинцово, д Раздоры"
            },
            {
                "latitude": 54.295311,
                "longitude": 36.105663,
                "description1": "7",
                "description2": "112380.0",
                "address": "Одинцовский городской округ, 10 посёлок Горки, д. 7а"
            },
            {
                "latitude": 55.730416,
                "longitude": 37.259639,
                "description1": "7",
                "description2": "113230.0",
                "address": "посёлок Барвиха, область Московская, Майендорф территория Сады, д. 56, к. 1"
            },
            {
                "latitude": 55.759274,
                "longitude": 37.297062,
                "description1": "55",
                "description2": "399097.5",
                "address": "территория Лесное, Раздоры деревня, округ Одинцовский городской, область Московская"
            },
            {
                "latitude": 55.756979,
                "longitude": 37.235043,
                "description1": "30",
                "description2": "7090.35",
                "address": "143421, Московская обл, г.о. Красногорск, г Красногорск, с Ильинское, ул Набережная, д. 1"
            },
            {
                "latitude": 55.531132,
                "longitude": 38.874756,
                "description1": "137",
                "description2": "291985.68",
                "address": "Московская обл"
            },
            {
                "latitude": 55.800453,
                "longitude": 37.594584,
                "description1": "1",
                "description2": "19000",
                "address": "127018, Москва г, вн.тер.г. муниципальный округ Бутырский, ул Складочная, д. 1, стр. 1"
            },
            {
                "latitude": 55.740771,
                "longitude": 37.277821,
                "description1": "3",
                "description2": "61614.5",
                "address": "Московская обл, г Одинцово, д Барвиха"
            },
            {
                "latitude": 57.093033,
                "longitude": 34.706204,
                "description1": "2",
                "description2": "38000",
                "address": "Тверская обл"
            },
            {
                "latitude": 55.72486,
                "longitude": 37.233264,
                "description1": "1",
                "description2": "135900",
                "address": "коттеджный посёлок Ландшафт, Жуковка деревня, округ Одинцовский городской, область Московская"
            },
            {
                "latitude": 55.673829,
                "longitude": 37.788621,
                "description1": "2",
                "description2": "89970",
                "address": "109559, Москва г, вн.тер.г. муниципальный округ Люблино, ул Перерва, д. 88А"
            },
            {
                "latitude": 55.771256,
                "longitude": 37.253818,
                "description1": "1",
                "description2": "28485",
                "address": "Московская область, Красногорск городской округ, Глухово деревня, Архангельское коттеджный посёлок, 1, Садовая вл.3А"
            }
        ]
    },
    {
        "name": "Макита ООО",
        "locations": []
    },
    {
        "name": "Мартынов Александр Сергеевич ИП",
        "locations": [
            {
                "latitude": 55.772613,
                "longitude": 37.56909,
                "description1": "20",
                "description2": "26600",
                "address": "123557, Москва г, ул Пресненский Вал, д. 27, стр. 1"
            },
            {
                "latitude": 55.820708,
                "longitude": 37.599974,
                "description1": "5",
                "description2": "42000",
                "address": "127427, Москва г, вн.тер.г. муниципальный округ Останкинский, ул Академика Королева, влд. 21"
            }
        ]
    },
    {
        "name": "МАСТЕР ПОВАР ООО",
        "locations": [
            {
                "latitude": 53.895599,
                "longitude": 30.332487,
                "description1": "2",
                "description2": "18785.04",
                "address": "г.Челябинск ул, Первомайская 1а"
            }
        ]
    },
    {
        "name": "МД ООО",
        "locations": [
            {
                "latitude": 55.697052,
                "longitude": 37.635386,
                "description1": "4470",
                "description2": "1533900",
                "address": "г Москва, ул Архитектора Щусева, Дом 5, Корпус 2"
            },
            {
                "latitude": 55.720139,
                "longitude": 37.690686,
                "description1": "15",
                "description2": "19230",
                "address": "г Москва, пр-кт Волгоградский, Дом 32/5, Корпус 1"
            },
            {
                "latitude": 55.71948,
                "longitude": 37.694423,
                "description1": "2631",
                "description2": "226151.7",
                "address": "г Москва, пр-кт Волгоградский, Дом 32, Корпус 3"
            },
            {
                "latitude": 55.71911,
                "longitude": 37.634784,
                "description1": "35",
                "description2": "3518",
                "address": "г Москва, ул Дубининская, Дом 59"
            },
            {
                "latitude": 55.72233,
                "longitude": 37.692734,
                "description1": "590",
                "description2": "42777",
                "address": "109316, Москва г, вн.тер.г. муниципальный округ Южнопортовый, пр-кт Волгоградский, д. 32/5"
            },
            {
                "latitude": 55.818103,
                "longitude": 37.752868,
                "description1": "185",
                "description2": "15865",
                "address": "107143, Москва г, вн.тер.г. муниципальный округ Метрогородок, ул Тагильская, д. 4А"
            },
            {
                "latitude": 55.720139,
                "longitude": 37.690686,
                "description1": "170",
                "description2": "48924.87",
                "address": "г Москва, пр-кт Волгоградский, Дом 32/5, Корпус 1"
            }
        ]
    },
    {
        "name": "МЕГСТ ООО",
        "locations": [
            {
                "latitude": 55.839097,
                "longitude": 37.41617,
                "description1": "2523",
                "description2": "3938903.1099999994",
                "address": "125373, Москва г, вн.тер.г. муниципальный округ Южное Тушино, пр-д Походный, двлд. 14, помещ. 13"
            },
            {
                "latitude": 55.851793,
                "longitude": 37.538592,
                "description1": "521",
                "description2": "5321568.23",
                "address": "125438, Москва г, вн.тер.г. муниципальный округ Головинский, наб Лихоборская, д. 16, стр. 1"
            }
        ]
    },
    {
        "name": "МЕДА СТРОЙ ООО",
        "locations": [
            {
                "latitude": 55.706152,
                "longitude": 37.59674,
                "description1": "93",
                "description2": "605450",
                "address": "115419, Москва г, вн.тер.г. муниципальный округ Донской, ул Орджоникидзе, д. 11, стр. 11"
            },
            {
                "latitude": 55.748108,
                "longitude": 37.459738,
                "description1": "70",
                "description2": "501874",
                "address": "Москва г, Метро терехово"
            },
            {
                "latitude": 55.762996,
                "longitude": 37.549489,
                "description1": "200",
                "description2": "66000",
                "address": "123022, Москва г, вн.тер.г. муниципальный округ Пресненский, ул Сергея Макеева, стр. 11"
            },
            {
                "latitude": 55.694363,
                "longitude": 37.674588,
                "description1": "4",
                "description2": "74410",
                "address": "115432, Москва г, вн.тер.г. муниципальный округ Нагатинский затон, пр-кт Андропова, д. 1"
            },
            {
                "latitude": 55.741034,
                "longitude": 37.269852,
                "description1": "2",
                "description2": "35005",
                "address": "143082, Московская обл, г.о. Одинцовский, д Барвиха, д. 78"
            },
            {
                "latitude": 55.774406,
                "longitude": 37.506792,
                "description1": "1",
                "description2": "106200",
                "address": "123308, Москва г, вн.тер.г. муниципальный округ Хорошево-Мневники, проезд 3-й Силикатный, д. 6"
            },
            {
                "latitude": 55.753519,
                "longitude": 37.601681,
                "description1": "4",
                "description2": "72820",
                "address": "119019, Москва г, вн.тер.г. муниципальный округ Пресненский, б-р Никитский, д. 6/20"
            }
        ]
    },
    {
        "name": "МЕРКУРИЙ ООО",
        "locations": [
            {
                "latitude": 55.772264,
                "longitude": 37.697918,
                "description1": "4",
                "description2": "207203",
                "address": "105094, Москва г, вн.тер.г. муниципальный округ Басманный, наб Госпитальная, д. 4, стр. 1"
            }
        ]
    },
    {
        "name": "МЕСА ООО (Борисово)",
        "locations": [
            {
                "latitude": 55.642697,
                "longitude": 37.671148,
                "description1": "1",
                "description2": "1520.4",
                "address": "Обособленное подразделение «МЕСА-БОРИСОВО», Россия, Москва г.муниципальный округ Москворечье-Сабурово вн. тер. г. Борисовские пруды ул.,д. 1, стр. 1 ИНН/КПП 9705137699/772445001"
            },
            {
                "latitude": 55.637063,
                "longitude": 37.705679,
                "description1": "2606",
                "description2": "499795.5",
                "address": "115211, Москва г, вн.тер.г. муниципальный округ Москворечье-Сабурово, ул Борисовские Пруды, д. 1/1"
            }
        ]
    },
    {
        "name": "МЕСА ООО (Тушино 2)",
        "locations": [
            {
                "latitude": 55.82179,
                "longitude": 37.416224,
                "description1": "2008",
                "description2": "245834.07",
                "address": "125424, Москва г, вн.тер.г. муниципальный округ Покровское-Стрешнево, ул Лётная, влд. 95"
            }
        ]
    },
    {
        "name": "МЕСА ООО (Тушино)",
        "locations": []
    },
    {
        "name": "МЕСА-Вудс ООО",
        "locations": []
    },
    {
        "name": "МЕТЕК ИНЖИНИРИНГ ООО",
        "locations": []
    },
    {
        "name": "МИВЕ МОНОЛИТ ООО",
        "locations": [
            {
                "latitude": 55.776806,
                "longitude": 37.696489,
                "description1": "18",
                "description2": "151268.46",
                "address": "105082, Москва г, вн.тер.г. муниципальный округ Басманный, ул Большая Почтовая, д. 18, стр. 6"
            }
        ]
    },
    {
        "name": "МИРСТРОЙ ООО",
        "locations": [
            {
                "latitude": 55.756452,
                "longitude": 37.807413,
                "description1": "46",
                "description2": "32455.12",
                "address": "111399, Москва г, вн.тер.г. муниципальный округ Новогиреево, пр-кт Федеративный, д. 17А"
            }
        ]
    },
    {
        "name": "МК ГРУПП ООО",
        "locations": [
            {
                "latitude": 55.557108,
                "longitude": 37.812282,
                "description1": "110",
                "description2": "576653.9299999999",
                "address": "142721, Московская обл, г.о. Ленинский, г Видное, д Мисайлово, мкр. Пригород Лесное, б-р Литературный, д. 1"
            },
            {
                "latitude": 55.828713,
                "longitude": 37.297449,
                "description1": "26",
                "description2": "122080.0",
                "address": "143409, Московская область, г.о. Красногорск, г Красногорск, ул Успенская, дом 4А, этаж/офис 2/212, рабочее место 3"
            },
            {
                "latitude": 55.824916,
                "longitude": 37.94031,
                "description1": "34",
                "description2": "606307.5",
                "address": "Московская обл, г Балашиха, мкр. Авиаторов, ул Колдунова"
            },
            {
                "latitude": 55.489544,
                "longitude": 37.752787,
                "description1": "161",
                "description2": "461746.09",
                "address": "Московская обл, г Домодедово, с Ям"
            }
        ]
    },
    {
        "name": "МК ЛИЗИНГ ООО",
        "locations": [
            {
                "latitude": 55.681712,
                "longitude": 37.693848,
                "description1": "24",
                "description2": "403379.11",
                "address": "115407, Москва г, ул Речников, д. 7"
            }
        ]
    },
    {
        "name": "МКТ ООО",
        "locations": [
            {
                "latitude": 55.656616,
                "longitude": 37.591557,
                "description1": "11",
                "description2": "289750.21",
                "address": "117303, Москва г, ул Одесская, д. 25"
            },
            {
                "latitude": 55.629765,
                "longitude": 37.667519,
                "description1": "10",
                "description2": "123242.82",
                "address": "115304, Москва г, вн.тер.г. муниципальный округ Царицыно, б-р Кавказский, д. 25"
            },
            {
                "latitude": 55.77958,
                "longitude": 37.48844,
                "description1": "1",
                "description2": "85485",
                "address": "123308, Москва г, вн.тер.г. муниципальный округ Хорошево-Мневники, ул Демьяна Бедного, д. 22, к. 1"
            }
        ]
    },
    {
        "name": "Мобиль АО",
        "locations": [
            {
                "latitude": 55.635808,
                "longitude": 37.73792,
                "description1": "180",
                "description2": "112800.01",
                "address": "г Москва, ул Борисовские Пруды"
            }
        ]
    },
    {
        "name": "МОДУЛЬ ЧД ООО",
        "locations": [
            {
                "latitude": 55.666584,
                "longitude": 37.426995,
                "description1": "393",
                "description2": "938595",
                "address": "119618, Москва г, вн.тер.г. муниципальный округ Солнцево, ул Домостроительная, д. 1, к. 2, помещ. 18"
            },
            {
                "latitude": 55.772613,
                "longitude": 37.56909,
                "description1": "10",
                "description2": "37220",
                "address": "123557, Москва г, ул Пресненский Вал, д. 27, стр. 1"
            }
        ]
    },
    {
        "name": "Мокран Карим Бенаиссович ИП",
        "locations": [
            {
                "latitude": 55.772613,
                "longitude": 37.56909,
                "description1": "20",
                "description2": "26600",
                "address": "123557, Москва г, ул Пресненский Вал, д. 27, стр. 1"
            },
            {
                "latitude": 55.820996,
                "longitude": 37.601528,
                "description1": "45",
                "description2": "95200",
                "address": "127427, Москва г, вн.тер.г. муниципальный округ Марфино, ул Академика Королева, д. 21, стр. 1"
            }
        ]
    },
    {
        "name": "МОНОЛИТ ООО",
        "locations": [
            {
                "latitude": 55.724854,
                "longitude": 37.688737,
                "description1": "3",
                "description2": "86400",
                "address": "Москва г, пр. ул. Новоостаповская / Волгоградский"
            }
        ]
    },
    {
        "name": "МОНОЛИТ-РУ ООО СК",
        "locations": [
            {
                "latitude": 55.58958,
                "longitude": 38.247812,
                "description1": "12",
                "description2": "43310.21",
                "address": "140109, Московская обл, г.о. Раменский, г Раменское, ул Семейная, д. 3"
            }
        ]
    },
    {
        "name": "Монолитстрой АО",
        "locations": [
            {
                "latitude": 56.377771,
                "longitude": 37.326653,
                "description1": "3",
                "description2": "3270",
                "address": "141830, Московская обл, г.о. Дмитровский, п Новосиньково, стр. 5А"
            },
            {
                "latitude": 56.437746,
                "longitude": 37.177434,
                "description1": "26",
                "description2": "473330",
                "address": "141880, Московская обл, г.о. Дмитровский, с Рогачево, ул Советская, д. 36, стр. 9Б"
            }
        ]
    },
    {
        "name": "МОНОЛИТСТРОЙ ООО",
        "locations": [
            {
                "latitude": 55.893263,
                "longitude": 37.539266,
                "description1": "38",
                "description2": "245164.0",
                "address": "127411, Москва г, ул Долгопрудная, д. 7"
            },
            {
                "latitude": 55.851303,
                "longitude": 37.651933,
                "description1": "22",
                "description2": "569478",
                "address": "129343, Москва г, вн.тер.г. муниципальный округ Свиблово, проезд Нансена, д. 10, к. 1"
            },
            {
                "latitude": 55.676473,
                "longitude": 37.602768,
                "description1": "17",
                "description2": "552437",
                "address": "117186, Москва г, вн.тер.г. муниципальный округ Котловка, ул Ремизова, д. 11, к. 2"
            },
            {
                "latitude": 55.849797,
                "longitude": 37.653685,
                "description1": "2",
                "description2": "47229",
                "address": "129343, Москва г, вн.тер.г. муниципальный округ Свиблово, проезд Нансена, д. 6, к. 1"
            }
        ]
    },
    {
        "name": "МОНОЛИТ-ФУНДАМЕНТСТРОЙ АО",
        "locations": [
            {
                "latitude": 55.765848,
                "longitude": 37.73668,
                "description1": "36",
                "description2": "263880.0",
                "address": "Москва г, вн.тер.г. муниципальный округ Соколиная гора, ул Соколиной Горы 5-я, влд. 21"
            }
        ]
    },
    {
        "name": "МОНОЛИТ-ЭКСПЕРТ ООО",
        "locations": [
            {
                "latitude": 55.697615,
                "longitude": 37.806856,
                "description1": "7",
                "description2": "239595",
                "address": "109472, Москва г, вн.тер.г. муниципальный округ Выхино-Жулебино, ул Ташкентская, д. 29А"
            },
            {
                "latitude": 55.773327,
                "longitude": 37.575378,
                "description1": "109",
                "description2": "468385",
                "address": "123056, Москва г, вн.тер.г. муниципальный округ Пресненский, ул Грузинский Вал, д. 3А, стр. 2"
            },
            {
                "latitude": 55.820996,
                "longitude": 37.601528,
                "description1": "156",
                "description2": "1863534.5",
                "address": "127427, Москва г, вн.тер.г. муниципальный округ Марфино, ул Академика Королева, д. 21, стр. 1"
            },
            {
                "latitude": 55.721392,
                "longitude": 37.594944,
                "description1": "1",
                "description2": "106200",
                "address": "119049, Москва г, вн.тер.г. муниципальный округ Якиманка, пр-кт Ленинский, д. 10, к. 7"
            }
        ]
    },
    {
        "name": "МОНОТЕК СТРОЙ ООО",
        "locations": [
            {
                "latitude": 55.74371,
                "longitude": 37.453333,
                "description1": "493",
                "description2": "1659030.2999999998",
                "address": "123423, Москва г, вн.тер.г. муниципальный округ Хорошево-Мневники, ул Нижние Мнёвники, д. 10А"
            },
            {
                "latitude": 55.788925,
                "longitude": 37.692716,
                "description1": "279",
                "description2": "2403104.99",
                "address": "107014, Москва г, вн.тер.г. муниципальный округ Сокольники, ул Матросская Тишина, д. 15/17, стр. 16"
            },
            {
                "latitude": 55.786784,
                "longitude": 37.696723,
                "description1": "90",
                "description2": "1050149.99",
                "address": "107014, Москва г, вн.тер.г. муниципальный округ Сокольники, ул Рубцовско-Дворцовая, д. 1/3, к. 2"
            },
            {
                "latitude": 55.722294,
                "longitude": 37.547486,
                "description1": "14",
                "description2": "135219.5",
                "address": "119048, Москва г, вн.тер.г. муниципальный округ Хамовники, ул Лужники, д. 24, стр. 2"
            },
            {
                "latitude": 55.706021,
                "longitude": 37.375,
                "description1": "50",
                "description2": "10000",
                "address": "г Москва, тер инновационного центра Сколково, б-р Большой, участок 9"
            },
            {
                "latitude": 55.979611,
                "longitude": 37.213555,
                "description1": "63",
                "description2": "102251.23",
                "address": "124498, Москва г, г Зеленоград, пр-кт Георгиевский, д. 7, стр. 4"
            },
            {
                "latitude": 55.755864,
                "longitude": 37.617698,
                "description1": "30",
                "description2": "570000",
                "address": "г Москва"
            },
            {
                "latitude": 56.314582,
                "longitude": 43.981903,
                "description1": "23",
                "description2": "683886",
                "address": "Нижегородская обл, г Нижний Новгород, ул Большие Овраги, Дом 8"
            },
            {
                "latitude": 54.688722,
                "longitude": 20.442655,
                "description1": "2",
                "description2": "188800",
                "address": "Калининградская обл, г.о. город Калининград, г Калининград, ул Невская, д. 14"
            }
        ]
    },
    {
        "name": "МОСТ ООО",
        "locations": [
            {
                "latitude": 53.757553,
                "longitude": 87.136053,
                "description1": "6",
                "description2": "50422.82",
                "address": "Кемеровская область - Кузбасс обл, г Новокузнецк"
            },
            {
                "latitude": 55.684686,
                "longitude": 37.330174,
                "description1": "1000",
                "description2": "60350",
                "address": "143005, Одинцово, Луговая, д. 10"
            },
            {
                "latitude": 55.684757,
                "longitude": 37.339346,
                "description1": "2020",
                "description2": "451050",
                "address": "121205, Москва г, тер инновационного центра Сколково, ул Нобеля, д. 1"
            },
            {
                "latitude": 55.655366,
                "longitude": 37.557538,
                "description1": "7",
                "description2": "147995",
                "address": "117246, Москва г, Научный проезд, дом 13, этаж 8, помещение XIII, комната 14"
            }
        ]
    },
    {
        "name": "Мосты и тоннели ООО",
        "locations": [
            {
                "latitude": 55.69553,
                "longitude": 37.726987,
                "description1": "2",
                "description2": "38000",
                "address": "109388, Москва г, вн.тер.г. муниципальный округ Печатники, ул Шоссейная, д. 4 а"
            }
        ]
    },
    {
        "name": "МС-77 ООО",
        "locations": [
            {
                "latitude": 55.816611,
                "longitude": 37.753191,
                "description1": "1303",
                "description2": "1680136.3399999999",
                "address": "107143, Москва г, вн.тер.г. муниципальный округ Метрогородок, ул Тагильская, д. 4В"
            },
            {
                "latitude": 55.703591,
                "longitude": 37.703128,
                "description1": "324",
                "description2": "6841528.149999999",
                "address": "115193, Москва г, вн.тер.г. муниципальный округ Печатники, ул Южнопортовая, д. 32"
            },
            {
                "latitude": 55.688558,
                "longitude": 37.468407,
                "description1": "99",
                "description2": "448500.0",
                "address": "119361, Москва г, вн.тер.г. муниципальный округ Очаково-Матвеевское, ул Озёрная, д. 2, к. 3"
            },
            {
                "latitude": 55.763964,
                "longitude": 37.523959,
                "description1": "32",
                "description2": "300356.8",
                "address": "123007, Москва г, вн.тер.г. муниципальный округ Хорошевский, ул 3-я Магистральная, д. 12, стр. 1"
            },
            {
                "latitude": 55.836843,
                "longitude": 37.421937,
                "description1": "268",
                "description2": "5965077.899999999",
                "address": "125362, Москва г, вн.тер.г. муниципальный округ Покровское-Стрешнево, проезд Строительный, д. 9, стр. 11"
            },
            {
                "latitude": 55.822407,
                "longitude": 37.43207,
                "description1": "251",
                "description2": "2929259.2199999993",
                "address": "г Москва, ш Волоколамское, Дом 71, Корпус 1"
            },
            {
                "latitude": 55.750276,
                "longitude": 37.83085,
                "description1": "42",
                "description2": "509830.0",
                "address": "111558, Москва г, ул Молостовых, д. 18"
            },
            {
                "latitude": 55.843106,
                "longitude": 37.401267,
                "description1": "2256",
                "description2": "2252195.74",
                "address": "125476, Москва г, вн.тер.г. муниципальный округ Южное Тушино, ул Окружная, д. 4"
            },
            {
                "latitude": 55.703951,
                "longitude": 37.702742,
                "description1": "30",
                "description2": "39900",
                "address": "г Москва, ул Южнопортовая"
            },
            {
                "latitude": 55.705843,
                "longitude": 37.698097,
                "description1": "32",
                "description2": "89635",
                "address": "г Москва, ул Южнопортовая, Дом 28А, Строение 17"
            },
            {
                "latitude": 55.704697,
                "longitude": 37.69719,
                "description1": "65",
                "description2": "216225",
                "address": "115193, Москва г, вн.тер.г. муниципальный округ Печатники, ул Южнопортовая, д. 28"
            }
        ]
    },
    {
        "name": "МСК 1520 ООО",
        "locations": [
            {
                "latitude": 55.766131,
                "longitude": 37.531954,
                "description1": "1",
                "description2": "79785",
                "address": "г Москва, туп 1-й Магистральный, Дом 5А"
            },
            {
                "latitude": 55.878576,
                "longitude": 37.512353,
                "description1": "2",
                "description2": "177000",
                "address": "г Москва, ул Базовская"
            },
            {
                "latitude": 55.557037,
                "longitude": 37.70876,
                "description1": "3",
                "description2": "85455",
                "address": "Московская обл, г Видное"
            }
        ]
    },
    {
        "name": "М-СТРОЙ ООО",
        "locations": [
            {
                "latitude": 55.703768,
                "longitude": 37.636302,
                "description1": "24",
                "description2": "219339.15999999997",
                "address": "115280, Москва г, вн.тер.г. муниципальный округ Даниловский, ул Автозаводская, д. 23, к. 23"
            }
        ]
    },
    {
        "name": "МСУ-1 АО",
        "locations": [
            {
                "latitude": 55.725737,
                "longitude": 37.455408,
                "description1": "62",
                "description2": "2315293.1900000004",
                "address": "121374, Москва г, вн.тер.г. муниципальный округ Фили-Давыдково, пр-кт Кутузовский, д. 78"
            }
        ]
    },
    {
        "name": "МТА КОНСТРАКШИН ООО",
        "locations": []
    },
    {
        "name": "Мусаев Илькин Дашдамир оглы",
        "locations": []
    },
    {
        "name": "Назаренко Игорь Владимирович",
        "locations": [
            {
                "latitude": 43.589893,
                "longitude": 39.765902,
                "description1": "1",
                "description2": "20912.51",
                "address": "354004, Краснодарский край, г.о. город-курорт Сочи, г Сочи, с Раздольное, ул Тепличная, д. 35Б"
            }
        ]
    },
    {
        "name": "НАСТРОЙ - ИС ООО",
        "locations": [
            {
                "latitude": 55.605866,
                "longitude": 37.578442,
                "description1": "1",
                "description2": "105020",
                "address": "117570, Москва г, вн.тер.г. муниципальный округ Чертаново Центральное, ул Красного Маяка, д. 28, к. 1"
            }
        ]
    },
    {
        "name": "НВС-СТРОЙ ООО",
        "locations": []
    },
    {
        "name": "НОАТЕК ООО ГК",
        "locations": [
            {
                "latitude": 55.755864,
                "longitude": 37.617698,
                "description1": "27",
                "description2": "227430.0",
                "address": "г Москва"
            }
        ]
    },
    {
        "name": "НОВЫЙ ГОРОД ООО",
        "locations": [
            {
                "latitude": 55.878117,
                "longitude": 37.501699,
                "description1": "1",
                "description2": "28800",
                "address": "Москва г, Инжорская, д. 6, к. 9"
            }
        ]
    },
    {
        "name": "НПП ЗАВОД МДУ ООО",
        "locations": [
            {
                "latitude": 53.757553,
                "longitude": 87.136053,
                "description1": "1",
                "description2": "16005",
                "address": "Кемеровская область - Кузбасс обл, г Новокузнецк"
            }
        ]
    },
    {
        "name": "НСК ООО",
        "locations": [
            {
                "latitude": 55.726634,
                "longitude": 37.584002,
                "description1": "6",
                "description2": "61736.24",
                "address": "119146, Город Москва, вн.тер. г. Муниципальный Округ Хамовники, пр-кт Комсомольский, дом 23/7, корпус 2, помещение 4/Ц"
            },
            {
                "latitude": 55.754841,
                "longitude": 37.623241,
                "description1": "2",
                "description2": "44545",
                "address": "109012, Москва г, вн.тер.г. муниципальный округ Тверской, ул Ильинка, д. 3/8, стр. 1"
            }
        ]
    },
    {
        "name": "ОГАС ООО",
        "locations": [
            {
                "latitude": 55.718806,
                "longitude": 37.779718,
                "description1": "3",
                "description2": "30268.8",
                "address": "г Москва, пр-кт Рязанский, Дом 30/15"
            }
        ]
    },
    {
        "name": "ОЗМ ООО",
        "locations": [
            {
                "latitude": 55.744794,
                "longitude": 37.517392,
                "description1": "647",
                "description2": "3761216.83",
                "address": "121151, Москва г, вн.тер.г. муниципальный округ Дорогомилово, проезд Кутузовский, д. 16, соор. 1"
            },
            {
                "latitude": 55.730188,
                "longitude": 37.853227,
                "description1": "479",
                "description2": "571860.0",
                "address": "111673, Москва г, вн.тер.г. муниципальный округ Новокосино, ул Николая Старостина, влд. 8"
            },
            {
                "latitude": 55.746365,
                "longitude": 37.622711,
                "description1": "29",
                "description2": "688715",
                "address": "115035, Москва г, вн.тер.г. муниципальный округ Якиманка, наб Софийская, д. 34, стр. 3"
            },
            {
                "latitude": 55.720504,
                "longitude": 37.65284,
                "description1": "440",
                "description2": "1519088",
                "address": "г Москва, наб Дербеневская"
            },
            {
                "latitude": 55.741551,
                "longitude": 37.604421,
                "description1": "5",
                "description2": "42000",
                "address": "119034, Москва г, вн.тер.г. муниципальный округ Хамовники, пер 2-й Обыденский, д. 3, стр. 1"
            },
            {
                "latitude": 55.742539,
                "longitude": 37.606325,
                "description1": "3",
                "description2": "26775",
                "address": "119034, Москва г, вн.тер.г. муниципальный округ Хамовники, проезд Соймоновский, влд. 1"
            }
        ]
    },
    {
        "name": "ОЗМК ООО",
        "locations": [
            {
                "latitude": 55.690273,
                "longitude": 39.140307,
                "description1": "7",
                "description2": "136218",
                "address": "142635, Московская обл, г.о. Орехово-Зуевский, д Губино, ул Железнодорожная, д. 1"
            }
        ]
    },
    {
        "name": "ОКБТМ ООО",
        "locations": [
            {
                "latitude": 55.794426,
                "longitude": 38.470217,
                "description1": "2400",
                "description2": "138000.0",
                "address": "144001, Московская обл, г.о. Электросталь, г. Электросталь, пер Строительный, д. 5"
            }
        ]
    },